[
    {
        "id": 1,
        "imgUrl": "/images/Mesob.webp",
        "name": "Swan River Distilling",
        "suburb": "Welshpool",
        "state": "WA",
        "postcode": "6160",
        "address": "16, 92-94 Briggs Street",
        "type": "Distillery",
        "products": "Absinthe, Gin, Limoncello, Spirits, Vodka",
        "description": "Visit our urban distillery where you can take a tour of our microdistillery and taste our delicious range of products. Weekends by appointment only.",
        "openingHours": "Tue-Fri 9am-5pm",
        "deliveryMethod": "Pick-Up, Delivery",
        "website": "swanriverdistillery.com.au/",
        "contact": "0488 614 991"
    },
    {
        "id": 2,
        "imgUrl": "/images/forestByronBay.webp",
        "name": "Forest Byron Bay",
        "suburb": "Suffolk Park",
        "state": "NSW",
        "postcode": "2481",
        "address": "77-97 Broken Head Road",
        "type": "Restaurant",
        "products": "Licensed, Modern Australian, Organic, Plant Based, Seafood",
        "description": "Set next to a lush rainforest oasis, Forest Byron Bay celebrates sustainability working hand-in-hand with local farmers, growers and artisans.Contemporary, social, approachable and distinctly Australian, our restaurant embraces the regionâ€™s abundance of stunning ingredients.",
        "openingHours": "Daily 7.30am-8.30pm",
        "deliveryMethod": "Dine-In",
        "website": "www.crystalbrookcollection.com/byron/forest",
        "contact": ""
    },
    {
        "id": 3,
        "imgUrl": "/images/savvyBev.webp",
        "name": "Savvy Beverages",
        "suburb": "Byron Bay",
        "state": "NSW",
        "postcode": "2481",
        "address": "1-2 Cape Court",
        "type": "Speciality Shop",
        "products": "Beverages, Licensed, Catering, Cider, Beer",
        "description": "We make nutritionally upgraded coffee and drinks with the best nootropics Australia. Savvy Brain Boost products are made from organic, superfood nutrients, vitamins and vegan nootropic botanicals.We are obsessed with helping people to improve their brain, wellbeing and mental performance to get more out of every day. By lowering their stress, and resisting burnout, people feel better and have more energy to enjoy doing the things they love.",
        "openingHours": "Mon-Fri 9am-5pm",
        "deliveryMethod": "Pick-Up, Delivery",
        "website": "www.savvybeverage.com.au/",
        "contact": ""
    },
    {
        "id": 4,
        "imgUrl": "/images/minaBakery.webp",
        "name": "Mina Bakery Carlton",
        "suburb": "Carlton",
        "state": "NSW",
        "postcode": "2218",
        "address": "11 Durham Street",
        "type": "Bakery",
        "products": "Baked Goods, Beverages, Desserts, Lebanese, Pizza",
        "description": "Mina Bakery Carlton is a family business established in 2009 serving Lebanese and Italian style pizzas.We are located in the heart of Carlton.",
        "openingHours": "Mon-Fri 6am-8pm, Sat-Sun 6am-4pm",
        "deliveryMethod": "Pick-Up, Delivery, Dine-In",
        "website": "www.minabakerycarlton.com.au",
        "contact": "(02) 8086 3334"
    }
]